Id,City,Lat,Lng,Max Temp,Humidity,Cloudiness,Wind Speed,Country,Date
1,Airai,-8.9266,125.4092,73.89,83,100,1.25,TL,1610161726
2,Iraquara,-12.2486,-41.6194,69.46,68,0,3.13,BR,1610161731
3,Rikitea,-23.1203,-134.9692,78.8,75,70,11.03,PF,1610161735
4,Albany,42.6001,-73.9662,19.99,74,4,7.61,US,1610161739
5,Šalčininkai,54.3,25.3833,27.0,93,90,3.44,LT,1610161743
6,Cape Town,-33.9258,18.4232,66.0,88,0,6.91,ZA,1610161536
7,Puerto Carreño,6.189,-67.4859,74.7,91,100,6.4,CO,1610161752
8,Avarua,-21.2078,-159.775,84.2,65,40,8.05,CK,1610161756
9,Punta Arenas,-53.15,-70.9167,50.0,66,75,16.11,CL,1610161619
10,Tilichiki,60.4667,166.1,-0.36,92,51,9.37,RU,1610161764
11,Mar del Plata,-38.0023,-57.5575,60.01,82,0,3.44,AR,1610161768
12,Rafsanjān,30.4067,55.9939,31.62,72,0,0.54,IR,1610161777
13,Hilo,19.7297,-155.09,77.0,69,40,5.75,US,1610161527
14,Ostrovnoy,68.0531,39.5131,12.99,95,100,3.22,RU,1610161785
15,Vaini,-21.2,-175.2,84.2,84,40,9.22,TO,1610161789
16,Terney,45.0503,136.6092,-2.07,79,0,12.28,RU,1610161793
17,Talnakh,69.4865,88.3972,-14.03,87,99,8.23,RU,1610161798
18,Hermanus,-34.4187,19.2345,64.0,84,0,1.99,ZA,1610161802
19,Mataura,-46.1927,168.8643,60.01,70,83,15.01,NZ,1610161810
20,Alugan,12.2188,125.4808,81.63,84,42,8.52,PH,1610161814
21,Busselton,-33.65,115.3333,96.01,27,35,5.01,AU,1610161819
22,Nuuk,64.1835,-51.7216,26.6,43,27,31.07,GL,1610161823
23,Naze,28.3667,129.4833,53.6,62,20,19.57,JP,1610161827
24,Bajil,15.0584,43.2851,70.25,73,0,1.83,YE,1610161831
25,Nelson Bay,-32.7167,152.15,75.2,64,75,16.11,AU,1610161713
26,Wylie,33.0151,-96.5389,39.99,81,1,6.91,US,1610161657
27,Bambous Virieux,-20.3428,57.7575,79.0,83,40,12.66,MU,1610161848
28,Bluff,-46.6,168.3333,60.01,70,99,15.01,NZ,1610161852
29,Hithadhoo,-0.6,73.0833,81.63,78,44,13.06,MV,1610161856
30,Boguchany,58.3814,97.4531,-7.44,87,100,2.91,RU,1610161861
31,Say,13.1007,2.3689,77.0,18,0,6.91,NE,1610161865
32,San Vicente de Cañete,-13.0751,-76.3835,70.97,82,98,3.02,PE,1610161869
33,Kapaa,22.0752,-159.319,77.0,65,1,12.66,US,1610161873
34,Kruisfontein,-34.0033,24.7314,69.01,91,23,1.01,ZA,1610161877
35,Ponta do Sol,32.6667,-17.1,48.0,78,40,5.01,PT,1610161882
36,George Town,5.4112,100.3354,82.4,69,20,4.61,MY,1610161886
37,Bagdarin,54.4333,113.6,-5.51,81,100,5.7,RU,1610161890
38,Cayenne,4.9333,-52.3333,73.4,100,20,1.14,GF,1610161894
39,Burnie,-41.0667,145.9167,71.01,59,4,13.0,AU,1610161907
40,Sinnamary,5.3833,-52.95,77.92,86,100,11.86,GF,1610161915
41,Fortuna,40.5982,-124.1573,45.0,100,1,6.91,US,1610161677
42,Bengkulu,-3.8004,102.2655,80.51,81,29,12.21,ID,1610161928
43,Carepa,7.7585,-76.6525,74.59,93,100,1.1,CO,1610161936
44,Touros,-5.1989,-35.4608,78.8,78,20,8.05,BR,1610161940
45,Hobart,-42.8794,147.3294,82.0,60,20,18.41,AU,1610161791
46,Bubaque,11.2833,-15.8333,79.2,71,0,13.13,GW,1610161949
47,Baykit,61.67,96.37,-12.51,79,100,0.96,RU,1610161953
48,Ribeira Grande,38.5167,-28.7,50.0,71,20,8.05,PT,1610161957
49,Puerto Ayora,-0.7393,-90.3518,73.0,93,41,1.01,EC,1610161961
50,Carnarvon,-24.8667,113.6333,89.6,62,48,12.66,AU,1610161965
51,Riberalta,-10.9833,-66.1,76.51,65,32,1.92,BO,1610161974
52,Miranda,3.2499,-76.2281,68.0,94,75,3.44,CO,1610161978
53,New Norfolk,-42.7826,147.0587,82.0,19,13,8.01,AU,1610161982
54,Vila Franca do Campo,37.7167,-25.4333,51.8,71,40,4.61,PT,1610161986
55,Cabra,37.4725,-4.4421,45.0,77,100,5.99,ES,1610161991
56,Bredasdorp,-34.5322,20.0403,60.8,94,26,3.44,ZA,1610161995
57,Ushuaia,-54.8,-68.3,55.4,44,40,16.11,AR,1610161999
58,Khatanga,71.9667,102.5,-17.95,88,100,7.47,RU,1610162003
59,Traverse City,44.7631,-85.6206,26.6,63,1,5.75,US,1610161825
60,Butaritari,3.0707,172.7902,81.25,81,40,19.84,KI,1610162012
61,Vanimo,-2.6741,141.3028,86.27,67,100,1.95,PG,1610162016
62,Bentiu,9.2333,29.8333,69.76,39,0,6.33,SS,1610162020
63,Sobolevo,54.4299,31.8996,25.32,98,100,8.95,RU,1610162024
64,Winder,33.9926,-83.7202,37.0,87,1,9.22,US,1610161980
65,Barrow,71.2906,-156.7887,-4.0,77,75,6.91,US,1610162033
66,Vila,42.0304,-8.1588,30.0,82,9,7.0,PT,1610162037
67,Demyansk,57.643,32.466,14.68,94,91,5.17,RU,1610162041
68,Ndago,-4.6,34.35,63.05,95,97,2.24,TZ,1610162045
69,Bennettsville,34.6174,-79.6848,39.0,93,90,5.75,US,1610162049
70,Jamestown,42.097,-79.2353,21.99,93,20,5.75,US,1610162054
71,Canavieiras,-15.675,-38.9472,76.39,86,1,7.02,BR,1610161766
72,Atuona,-9.8,-139.0333,77.79,75,12,17.87,PF,1610162062
73,Rocha,-34.4833,-54.3333,60.1,91,0,3.71,UY,1610162066
74,Okhotsk,59.3833,143.3,-12.17,85,99,12.26,RU,1610162070
75,Saint George,37.1041,-113.5841,43.0,35,1,4.61,US,1610162074
76,Port Alfred,-33.5906,26.891,71.01,95,33,5.41,ZA,1610162079
77,Wentzville,38.8114,-90.8529,32.0,84,100,1.01,US,1610162087
78,Broken Hill,-31.95,141.4333,86.0,16,0,18.41,AU,1610162091
79,Klaksvík,62.2266,-6.589,44.6,100,90,12.66,FO,1610162095
80,Saskylakh,71.9167,114.0833,-10.77,89,100,10.16,RU,1610162100
81,Iwanai,42.9744,140.5089,21.58,93,99,16.17,JP,1610162108
82,Guarda,40.5373,-7.2658,34.0,94,99,7.0,PT,1610162112
83,Kiruna,67.8557,20.2251,5.0,85,90,5.75,SE,1610162117
84,Calvinia,-31.4707,19.776,59.0,67,0,2.3,ZA,1610162121
85,Tuktoyaktuk,69.4541,-133.0374,1.4,85,20,4.61,CA,1610162125
86,Manicoré,-5.8092,-61.3003,74.3,95,97,2.55,BR,1610162129
87,Fairview,40.8126,-73.999,33.01,59,1,6.91,US,1610161864
88,Arraial do Cabo,-22.9661,-42.0278,76.75,90,82,2.57,BR,1610161996
89,Cidreira,-30.1811,-50.2056,74.34,63,0,10.74,BR,1610162142
90,Dikson,73.5069,80.5464,-12.62,88,0,11.5,RU,1610162146
91,Kalabo,-14.97,22.6814,66.72,93,100,5.03,ZM,1610162150
92,Faanui,-16.4833,-151.75,80.98,69,0,6.42,PF,1610162154
93,Dingle,10.9995,122.6711,79.07,88,81,11.54,PH,1610162159
94,Lüderitz,-26.6481,15.1594,65.52,70,0,15.66,NA,1610162163
95,Karratha,-20.7377,116.8463,99.01,30,61,1.5,AU,1610162167
96,Saint Paul Harbor,57.79,-152.4072,32.0,86,90,8.05,US,1610162171
97,Castro,-24.7911,-50.0119,64.06,97,99,7.63,BR,1610162175
98,Bandarbeyla,9.4942,50.8122,74.35,71,73,21.25,SO,1610162180
99,Seabra,-12.4186,-41.7703,68.72,66,1,2.98,BR,1610162184
100,Lebu,-37.6167,-73.65,54.0,82,76,14.25,CL,1610162188
101,Cooma,-36.2333,149.1333,75.2,35,0,3.44,AU,1610162172
102,Qaanaaq,77.484,-69.3632,1.27,88,100,9.4,GL,1610162196
103,Dzemul,21.2,-89.3,66.2,72,40,5.75,MX,1610162201
104,Chui,-33.6971,-53.4616,64.27,81,0,5.39,UY,1610162205
105,Erzurum Province,40.0,41.5,5.0,100,0,3.44,TR,1610162070
106,Mahébourg,-20.4081,57.7,78.8,83,40,12.66,MU,1610162213
107,Severo-Kuril'sk,50.6789,156.125,25.88,85,100,12.3,RU,1610162217
108,Guadix,37.2993,-3.1392,48.0,89,90,4.7,ES,1610162226
109,Zhezkazgan,47.8043,67.7144,-16.58,85,61,5.48,KZ,1610162230
110,Were Īlu,10.6,39.4333,45.81,70,9,5.53,ET,1610162234
111,Port Hardy,50.6996,-127.4199,44.6,100,75,4.61,CA,1610162106
112,Provideniya,64.3833,-173.3,-5.96,83,91,6.64,RU,1610162242
113,Biryusinsk,55.9634,97.8235,-9.42,87,100,1.97,RU,1610162247
114,Hamilton,39.1834,-84.5333,30.99,69,90,13.8,US,1610162106
115,Na Wa,17.4897,104.1006,64.4,55,0,8.05,TH,1610162255
116,Ketchikan,55.3422,-131.6461,41.0,93,90,13.8,US,1610162259
117,Kysyl-Syr,63.8986,122.7617,-31.27,83,91,3.78,RU,1610162263
118,Gorkovskiy,45.6542,41.199,47.77,56,100,8.7,RU,1610162268
119,Lompoc,34.6391,-120.4579,55.0,87,1,11.74,US,1610162272
120,Baykalovo,57.3981,63.7684,3.25,94,99,3.24,RU,1610162276
121,Bǝrdǝ,40.3744,47.1267,24.8,100,40,5.75,AZ,1610162280
122,Chegdomyn,51.1167,133.0167,-22.11,80,96,1.7,RU,1610162284
123,Lima,-12.0432,-77.0282,69.8,83,0,12.66,PE,1610162258
124,Puerto Escondido,15.85,-97.0667,75.2,83,40,4.61,MX,1610162293
125,Cockburn Town,21.4612,-71.1419,77.65,79,68,10.98,TC,1610162297
126,Yellowknife,62.456,-114.3525,-2.2,78,1,5.75,CA,1610162127
127,Taltal,-25.4,-70.4833,64.67,75,2,4.41,CL,1610162305
128,Bethel,41.3712,-73.414,25.0,68,1,3.44,US,1610162309
129,Harper,4.375,-7.7169,78.4,85,38,7.76,LR,1610162314
130,Marsabit,2.3284,37.9899,63.73,77,4,7.02,KE,1610162318
131,Lagoa,39.05,-27.9833,56.1,62,96,8.79,PT,1610162322
132,Dunedin,-45.8742,170.5036,61.36,63,79,13.65,NZ,1610162135
133,Sola,-13.8833,167.55,87.8,74,75,2.3,VU,1610162335
134,Sitka,57.0531,-135.33,37.4,93,90,6.91,US,1610162343
135,Uruguaiana,-29.7547,-57.0883,71.6,68,0,4.61,BR,1610162347
136,Blagoyevo,63.3667,47.9167,0.75,93,83,4.9,RU,1610162351
137,San Patricio,28.017,-97.5169,50.0,76,20,6.91,US,1610162356
138,Srednekolymsk,67.45,153.6833,-26.68,84,93,2.15,RU,1610162360
139,Baião,-2.7906,-49.6717,74.12,96,99,2.01,BR,1610162364
140,Luangwa,-15.6167,30.4167,72.81,92,100,1.3,ZM,1610162368
141,Batemans Bay,-35.7167,150.1833,75.99,51,0,1.01,AU,1610162376
142,Vieques,18.425,-65.8329,75.2,73,1,4.61,PR,1610162381
143,Nyurba,63.2842,118.3319,-6.02,91,100,5.32,RU,1610162385
144,Pemangkat,1.1667,108.9667,82.94,76,100,2.37,ID,1610162389
145,Kieta,-6.2167,155.6333,86.52,55,98,3.62,PG,1610162393
146,Mitsamiouli,-11.3847,43.2844,81.03,79,68,11.01,KM,1610162397
147,Minot,48.2325,-101.2963,30.2,69,90,3.44,US,1610162364
148,Ilulissat,69.2167,-51.1,6.8,56,100,26.46,GL,1610162406
149,Marrakesh,31.6315,-8.0083,48.2,93,75,10.36,MA,1610162410
150,Angoche,-16.2325,39.9086,78.3,86,100,3.38,MZ,1610162414
151,Esna,25.2934,32.554,53.6,54,0,3.44,EG,1610162419
152,La Santisima Trinidad,-14.8333,-64.9,74.57,90,7,2.28,BO,1610162406
153,Prince Rupert,54.3161,-130.3201,44.6,87,20,10.36,CA,1610162427
154,Pangody,65.85,74.4859,-13.14,90,92,4.16,RU,1610162431
155,Halifax,44.6453,-63.5724,27.0,80,78,8.05,CA,1610162206
156,Grand Gaube,-20.0064,57.6608,78.01,83,12,5.99,MU,1610162408
157,Charter Township of Clinton,42.587,-82.9199,28.99,93,75,9.22,US,1610162340
158,Orlik,52.5178,99.825,-12.87,79,98,1.32,RU,1610162448
159,Novopskov,49.5464,39.0899,32.94,96,100,2.59,UA,1610162452
160,Kushikino,31.7167,130.2667,35.6,55,20,17.27,JP,1610162222
161,Caravelas,-17.7125,-39.2481,77.2,82,0,8.86,BR,1610162465
162,Nishihara,26.1842,127.7558,53.6,43,90,16.11,JP,1610162469
163,Honiara,-9.4333,159.95,86.74,61,23,4.72,SB,1610162473
164,Pevek,69.7008,170.3133,-19.48,89,88,3.91,RU,1610162477
165,Leningradskiy,69.3833,178.4167,-20.2,79,0,3.11,RU,1610162482
166,Sterlibashevo,53.4376,55.2578,21.99,97,97,16.46,RU,1610162486
167,Port Elizabeth,-33.918,25.5701,69.8,94,90,5.75,ZA,1610162490
168,Cankuzo Province,-3.1333,30.5833,57.27,99,100,1.77,BI,1610162494
169,Maputo,-25.9653,32.5892,77.0,83,75,6.91,MZ,1610162282
170,Lenger,42.183,69.8839,10.4,72,0,6.71,KZ,1610162503
171,Adrar,20.5022,-10.0711,67.91,44,0,8.28,MR,1610162507
172,Solapur,17.6833,75.9167,73.96,75,77,13.0,IN,1610162434
173,Manggar,-2.8833,108.2667,85.33,69,84,6.98,ID,1610162515
174,Mount Gambier,-37.8333,140.7667,86.0,39,3,13.8,AU,1610162519
175,Porto Velho,-8.7619,-63.9039,75.2,94,0,1.14,BR,1610162523
176,Souillac,-20.5167,57.5167,78.8,83,40,12.66,MU,1610162528
177,Nemuro,43.3236,145.575,19.4,58,20,11.5,JP,1610162532
178,Coquimbo,-29.9533,-71.3436,59.0,82,90,4.61,CL,1610162536
179,Unguía,8.0434,-77.0945,75.79,85,100,2.77,CO,1610162540
180,Fairbanks,64.8378,-147.7164,3.2,85,20,0.78,US,1610162322
181,Thompson,55.7435,-97.8558,5.0,85,1,2.3,CA,1610162553
182,Nikolskoye,59.7035,30.7861,12.99,79,0,2.24,RU,1610162557
183,Yarmouth,41.7057,-70.2286,33.01,74,1,3.44,US,1610162561
184,Dhidhdhoo,6.8833,73.1,82.08,76,100,8.34,MV,1610162565
185,Turaif,31.6725,38.6637,37.4,70,0,6.91,SA,1610162569
186,Chapais,49.7834,-74.8492,10.4,85,90,5.75,CA,1610162574
187,Keighley,53.8679,-1.9066,32.0,94,7,1.63,GB,1610162578
188,Hirara,24.8,125.2833,53.6,62,75,11.5,JP,1610162586
189,Bathsheba,13.2167,-59.5167,78.8,78,75,18.41,BB,1610162361
190,Agadez,19.75,10.25,66.96,24,0,9.13,NE,1610162595
191,Katobu,-4.9408,122.5276,84.67,75,100,1.83,ID,1610162599
192,Saint Anthony,45.0205,-93.218,19.0,92,90,4.61,US,1610162603
193,Florence,43.7667,11.25,41.0,60,0,4.61,IT,1610162607
194,Bilma,18.6853,12.9164,68.74,23,0,10.49,NE,1610162612
195,Olafsvik,64.8945,-23.7142,21.47,91,93,23.02,IS,1610162409
196,Salta,-24.7859,-65.4117,68.0,88,20,3.44,AR,1610162429
197,Cherskiy,68.75,161.3,-21.6,88,84,2.15,RU,1610162624
198,Salalah,17.0151,54.0924,68.0,52,0,6.91,OM,1610162628
199,Longyearbyen,78.2186,15.6401,21.2,73,75,8.05,SJ,1610162632
200,Half Moon Bay,37.4636,-122.4286,52.0,93,40,4.61,US,1610162641
201,Idrinskoye,54.3708,92.1358,-12.32,86,96,2.55,RU,1610162645
202,Constitución,-35.3333,-72.4167,53.13,78,37,5.01,CL,1610162649
203,Pavino,59.1139,46.1414,10.26,96,82,4.36,RU,1610162653
204,Guerrero Negro,27.9769,-114.0611,60.06,68,0,8.25,MX,1610162658
205,Tasiilaq,65.6145,-37.6368,12.2,57,0,6.91,GL,1610162662
206,Lorengau,-2.0226,147.2712,85.95,69,35,7.0,PG,1610162666
207,Ettaiyapuram,9.1441,77.9907,78.8,83,75,6.91,IN,1610162670
208,Upernavik,72.7868,-56.1549,8.06,73,100,6.44,GL,1610162674
209,Porto Belo,-27.1578,-48.5531,75.2,88,75,8.05,BR,1610162678
210,Darhan,49.4867,105.9228,-2.9,84,0,6.13,MN,1610162683
211,Malokaterynivka,47.6525,35.2539,32.0,100,75,6.71,UA,1610162687
212,Tiksi,71.6872,128.8694,-14.28,89,100,12.71,RU,1610162691
213,Takoradze,4.8845,-1.7554,77.9,88,85,7.96,GH,1610162695
214,Puri,19.8,85.85,71.6,64,0,4.61,IN,1610162699
215,Anloga,5.7947,0.8973,78.8,94,40,6.91,GH,1610162703
216,Tarakan,3.3,117.6333,77.0,94,75,3.44,ID,1610162420
217,Hobyo,5.3505,48.5268,73.74,71,4,19.42,SO,1610162712
218,Verkhnyaya Inta,65.9811,60.3094,-2.97,92,90,4.88,RU,1610162716
219,Berbera,10.4396,45.0143,72.68,67,1,7.67,SO,1610162720
220,East London,-33.0153,27.9116,71.6,94,20,3.44,ZA,1610162724
221,Cabo San Lucas,22.8909,-109.9124,68.0,77,1,2.3,MX,1610162694
222,Sălacea,47.4667,22.3167,28.4,93,90,3.44,RO,1610162733
223,Maroantsetra,-15.4333,49.7333,74.52,84,18,3.04,MG,1610162737
224,Potiskum,11.7091,11.0694,68.61,25,83,9.66,NG,1610162741
225,Wuhu,31.3366,118.3755,37.4,28,0,8.95,CN,1610162745
226,Kununurra,-15.7667,128.7333,95.0,49,0,5.75,AU,1610162749
227,Shestakovo,56.4915,103.96,-16.55,84,4,4.25,RU,1610162754
228,Le Port,-20.9373,55.2919,82.4,51,0,2.3,RE,1610162758
229,Payakumbuh,-0.2202,100.6308,70.9,91,100,1.68,ID,1610162762
230,Sistranda,63.7256,8.834,26.6,86,0,17.27,NO,1610162766
231,Impfondo,1.6381,18.0667,70.99,91,96,3.38,CG,1610162770
232,Norman Wells,65.282,-126.8329,5.0,85,20,8.05,CA,1610162775
233,Malartic,48.1335,-78.1328,6.8,92,20,4.61,CA,1610162779
234,Kattivākkam,13.2167,80.3167,80.6,89,40,4.61,IN,1610162783
235,Yumen,40.2833,97.2,12.67,63,100,24.81,CN,1610162787
236,Borogontsy,62.6683,131.1683,-37.53,80,100,2.1,RU,1610162791
237,Mae Sai,20.4335,99.8762,73.99,68,20,3.44,TH,1610162796
238,Imbituba,-28.24,-48.6703,77.0,88,0,3.44,BR,1610162800
239,São Filipe,14.8961,-24.4956,73.42,77,71,12.3,CV,1610162804
240,Lashio,22.9333,97.75,70.61,58,21,0.67,MM,1610162808
241,San Quintín,30.4833,-115.95,58.59,78,0,8.84,MX,1610162812
242,Bitung,1.4451,125.1824,86.0,62,40,10.36,ID,1610162817
243,Mikhaylov,54.2292,39.0186,28.58,98,100,7.54,RU,1610162821
244,Mountain Home,43.133,-115.6912,33.8,97,75,11.5,US,1610162825
245,Boa Vista,2.8197,-60.6733,78.8,83,40,2.75,BR,1610162829
246,Saldanha,-33.0117,17.9442,60.8,88,0,5.75,ZA,1610162833
247,Onega,63.9061,38.1404,-11.0,89,0,2.91,RU,1610162842
248,Canutama,-6.5339,-64.3831,76.06,83,47,1.66,BR,1610162846
249,Beira,-19.8436,34.8389,78.8,89,75,5.75,MZ,1610162850
250,Iquitos,-3.7481,-73.2472,77.0,94,20,2.3,PE,1610162602
251,Saint-Philippe,-21.3585,55.7679,78.8,57,0,3.44,RE,1610162863
252,Wamba,8.9333,8.6,72.61,22,2,3.29,NG,1610162867
253,Nurota,40.5614,65.6886,15.8,79,52,4.61,UZ,1610162871
254,Tiznit Province,29.5833,-9.5,50.18,90,96,8.97,MA,1610162875
255,Thai Binh,20.45,106.3333,50.0,53,90,3.44,VN,1610162631
256,Houston,29.7633,-95.3633,46.4,70,1,10.36,US,1610162082
257,Cibeureum,-7.3552,108.2693,84.11,70,99,0.96,ID,1610162888
258,Itoman,26.1247,127.6694,53.6,54,75,17.27,JP,1610162892
259,Amudat,1.95,34.95,64.67,61,29,1.77,UG,1610162896
260,Barth,54.3635,12.7249,37.0,93,75,6.91,DE,1610162900
261,Along,28.1667,94.7667,64.06,50,46,0.49,IN,1610162905
262,Turukhansk,65.8167,87.9833,-11.56,89,100,7.36,RU,1610162909
263,Camaná,-16.6228,-72.7111,71.47,76,78,5.57,PE,1610162913
264,Toora-Khem,52.4675,96.11,-15.36,85,100,0.92,RU,1610162921
265,Flinders,-34.5833,150.8552,79.0,57,23,4.0,AU,1610162729
266,Ayan,56.45,138.1667,-8.79,77,98,3.56,RU,1610162930
267,Koygorodok,60.445,50.9968,10.08,96,77,4.5,RU,1610162934
268,Malia,35.2833,25.4667,63.0,82,75,18.41,GR,1610162938
269,Torbay,47.6666,-52.7314,36.0,93,90,18.41,CA,1610162942
270,Coahuayana Viejo,18.7333,-103.6833,69.8,78,40,2.95,MX,1610162946
271,Sakakah,29.9697,40.2064,44.6,57,0,4.61,SA,1610162951
272,Riacho de Santana,-13.6092,-42.9389,78.19,49,65,3.18,BR,1610162955
273,Husavik,66.0449,-17.3389,15.8,86,90,16.11,IS,1610162959
274,Pisco,-13.7,-76.2167,70.0,83,0,8.05,PE,1610162963
275,Olinda,-8.0089,-34.8553,78.8,69,40,4.61,BR,1610162967
276,Kaitangata,-46.2817,169.8464,62.01,60,66,15.01,NZ,1610162971
277,Karpogory,64.0019,44.4451,-6.14,91,82,3.36,RU,1610162976
278,Viedma,-40.8135,-62.9967,64.99,55,0,5.99,AR,1610162980
279,Bahía Blanca,-38.7196,-62.2724,68.83,42,94,14.81,AR,1610162984
280,Tiarei,-17.5333,-149.3333,82.4,74,40,9.22,PF,1610162992
281,Richards Bay,-28.783,32.0377,75.2,78,100,4.0,ZA,1610162923
282,Toktogul,41.8708,72.9402,17.53,65,0,1.14,KG,1610163001
283,Kiryat Gat,31.61,34.7642,61.0,48,0,4.0,IL,1610163005
284,Kavaratti,10.5669,72.642,82.09,76,100,8.5,IN,1610163009
285,Panabá,21.2833,-88.2667,67.44,72,97,7.18,MX,1610163013
286,Lianzhou,24.7811,112.3825,47.62,43,35,6.62,CN,1610163022
287,Voh,-20.9667,164.7,85.26,75,80,2.33,NC,1610163026
288,Artyom,40.4723,50.333,44.6,87,40,16.11,AZ,1610163030
289,Birao,10.2849,22.7882,65.46,27,84,8.03,CF,1610163035
290,Kumul,42.8,93.45,16.11,68,100,1.34,CN,1610163039
291,Samarai,-10.6167,150.6667,85.91,73,71,11.18,PG,1610163043
292,Magdug,6.5476,126.0951,82.09,75,87,0.81,PH,1610163047
293,Isangel,-19.55,169.2667,82.4,89,90,6.24,VU,1610163056
294,Los Llanos de Aridane,28.6585,-17.9182,57.2,67,40,6.91,ES,1610163060
295,College,64.8569,-147.8028,3.2,78,75,3.44,US,1610163064
296,Geraldton,-28.7667,114.6,89.6,43,90,13.8,AU,1610163042
297,Irbit,57.6705,63.071,3.74,94,97,2.15,RU,1610163072
298,Vahagni,40.907,44.6087,5.0,78,67,7.92,AM,1610163077
299,Vágur,61.4732,-6.8119,45.63,88,100,39.88,FO,1610163081
300,Romans-sur-Isère,45.0464,5.0562,26.01,86,100,5.23,FR,1610163085
301,Taoudenni,22.6783,-3.9836,68.36,23,0,4.23,ML,1610163089
302,São Gabriel da Cachoeira,-0.1303,-67.0892,70.84,99,100,2.44,BR,1610163093
303,Forio,40.7342,13.8646,48.99,87,98,1.01,IT,1610163098
304,Dovbysh,50.3733,27.9874,27.3,98,94,5.64,UA,1610163102
305,Sabang,5.8933,95.3214,81.63,80,96,22.44,ID,1610163106
306,Carballo,43.213,-8.691,35.01,100,72,5.03,ES,1610163114
307,Vanavara,60.34,102.2797,-7.64,86,82,7.09,RU,1610163123
308,Margate,51.3813,1.3862,37.99,90,78,1.99,GB,1610163127
309,Kikwit,-5.041,18.8162,67.57,98,93,1.39,CD,1610163131
310,Pozo Colorado,-23.4923,-58.7972,73.54,93,62,4.38,PY,1610163135
311,Okakarara,-20.5833,17.4333,67.98,88,100,5.12,NA,1610163139
312,Dongsheng,39.8161,109.9776,8.49,72,0,15.88,CN,1610163144
313,Tigre,-34.426,-58.5796,75.2,64,0,12.66,AR,1610163148
314,Raudeberg,61.9875,5.1352,37.99,79,86,25.46,NO,1610163152
315,Meulaboh,4.1363,96.1285,83.53,69,100,4.81,ID,1610163156
316,Borovoy,55.4333,86.0833,-14.8,76,50,8.95,RU,1610163165
317,Arrondissement de Roanne,46.0,4.0,27.0,100,100,5.06,FR,1610163169
318,Santa Maria,-29.6842,-53.8069,69.8,64,0,4.61,BR,1610163130
319,Beringovskiy,63.05,179.3167,-20.25,86,14,8.88,RU,1610163177
320,Hasaki,35.7333,140.8333,46.0,22,20,6.91,JP,1610163181
321,Borba,-4.3878,-59.5939,73.67,94,92,1.61,BR,1610163185
322,Port Lincoln,-34.7333,135.8667,78.01,47,0,9.89,AU,1610163190
323,Waipawa,-41.4122,175.5153,66.0,68,90,8.05,NZ,1610163194
324,Hurghada,27.2574,33.8129,59.0,41,0,10.36,EG,1610163108
325,Vrangel',42.7297,133.0839,2.03,78,1,16.15,RU,1610162941
326,Nizwá,22.9333,57.5333,55.27,35,0,6.85,OM,1610163206
327,Padang,-0.9492,100.3543,81.14,81,84,6.8,ID,1610163211
328,Indianola,41.3581,-93.5574,28.0,77,100,5.3,US,1610163215
329,Ürümqi,43.801,87.6005,6.8,85,100,2.24,CN,1610163219
330,Dzhebariki-Khaya,62.2167,135.8,-32.93,81,92,1.34,RU,1610163223
331,Vanderhoof,54.0166,-124.0198,19.81,94,31,1.43,CA,1610163227
332,Alyangula,-13.8483,136.4192,89.6,66,40,6.91,AU,1610163236
333,Grindavik,63.8424,-22.4338,19.4,63,20,17.27,IS,1610163212
334,Faya,18.3851,42.4509,48.2,66,0,2.1,SA,1610163244
335,Nanortalik,60.1432,-45.2371,32.25,94,100,12.17,GL,1610163248
336,Saint-Augustin,51.226,-58.6502,36.16,82,95,15.75,CA,1610163252
337,Registro,-24.4875,-47.8436,73.69,97,100,2.13,BR,1610163257
338,Krasnosel'kup,65.7,82.4667,-10.77,90,93,3.27,RU,1610163261
339,Acapulco de Juárez,16.8634,-99.8901,78.8,83,40,3.44,MX,1610163195
340,Venado Tuerto,-33.7456,-61.9688,66.99,77,100,10.0,AR,1610163004
341,Parakan,-6.4191,106.0081,78.89,85,99,0.89,ID,1610163273
342,Abonnema,4.7084,6.7931,73.4,100,20,3.0,NG,1610163278
343,Coyhaique,-45.5752,-72.0662,51.8,71,83,4.61,CL,1610163282
344,Quatre Cocos,-20.2078,57.7625,79.0,83,40,12.66,MU,1610163286
345,Khasan,42.4308,130.6434,9.25,77,12,19.24,RU,1610163290
346,Micheweni,-4.9667,39.8333,79.97,79,99,12.91,TZ,1610163294
347,Corinth,37.9407,22.9573,57.0,71,58,3.36,GR,1610163299
348,Tharād,24.3961,71.6267,64.83,45,0,16.33,IN,1610163303
349,La Providencia,28.7167,-111.5833,62.01,43,0,1.01,MX,1610163307
350,Otane,-39.8833,176.6333,73.0,63,86,1.01,NZ,1610163311
351,Bragança Paulista,-22.94,-46.5556,73.4,94,90,4.61,BR,1610163315
352,Arman',59.7,150.1667,-3.03,83,100,6.29,RU,1610163320
353,Kahului,20.8947,-156.47,80.6,57,20,11.5,US,1610163195
354,Shimoda,34.6667,138.95,42.8,39,20,13.8,JP,1610163328
355,Kaduna,10.5222,7.4383,67.5,26,3,8.1,NG,1610163332
356,Abashiri,44.0213,144.2697,25.0,63,20,5.75,JP,1610163336
357,Makaha,21.4694,-158.2175,78.8,78,20,9.22,US,1610163340
358,Ust'-Kulom,61.6864,53.6902,7.43,95,89,4.61,RU,1610163345
359,Henties Bay,-22.116,14.2845,66.99,87,100,4.59,NA,1610163349
360,Labuhan,-6.8844,112.2051,86.18,69,46,8.03,ID,1610163353
361,Pudozh,61.8099,36.5345,-9.67,90,0,4.21,RU,1610163357
362,Laranjeiras do Sul,-25.4078,-52.4161,63.52,99,66,3.53,BR,1610163362
363,Verkhnevilyuysk,63.4453,120.3167,-15.72,88,100,4.12,RU,1610163366
364,Władysławowo,54.7909,18.4009,36.0,100,40,3.44,PL,1610163370
365,Catió,11.2833,-15.25,72.1,89,0,3.51,GW,1610163374
366,Vasterhaninge,59.1167,18.1,35.01,74,97,9.71,SE,1610163383
367,Millinocket,45.6573,-68.7098,21.2,79,90,6.91,US,1610163387
368,Bonavista,48.6499,-53.1147,36.0,100,100,6.91,CA,1610163203
369,Barisāl,22.7019,90.3711,78.35,34,7,5.06,BD,1610163395
370,Shahrud,36.4182,54.9763,29.91,80,0,3.91,IR,1610163400
371,Tuatapere,-46.1333,167.6833,61.0,72,87,15.01,NZ,1610163338
372,Lakatoro,-16.0999,167.4164,83.97,71,100,5.66,VU,1610163408
373,Vao,-22.6667,167.4833,77.23,86,100,20.47,NC,1610163412
374,Zhigansk,66.7697,123.3711,-31.29,84,100,5.88,RU,1610163369
375,Sompeta,18.9333,84.6,79.88,38,0,4.56,IN,1610163420
376,Puerto El Triunfo,13.2833,-88.55,77.0,88,40,1.14,SV,1610163204
377,Tautira,-17.7333,-149.15,84.2,70,20,9.22,PF,1610163429
378,Limbang,4.75,115.0,86.0,74,75,4.61,MY,1610163194
379,Nioro,13.35,-15.75,69.08,62,0,8.3,GM,1610163437
380,Muriwai Beach,-36.8167,174.45,77.0,67,4,4.0,NZ,1610163442
381,Sfântu Gheorghe,45.8667,25.7833,30.99,95,99,3.15,RO,1610163176
382,Valleyview,55.0667,-117.2859,15.8,73,78,1.14,CA,1610163450
383,Nazaré,-13.035,-39.0144,76.21,88,76,3.09,BR,1610163454
384,Alofi,-19.0595,-169.9187,86.0,70,29,14.97,NU,1610163458
385,Port Hawkesbury,45.6169,-61.3485,28.99,93,90,11.5,CA,1610163221
386,Thunder Bay,48.4001,-89.3168,28.99,93,90,4.61,CA,1610163467
387,Marystown,47.1666,-55.1483,36.36,94,100,17.16,CA,1610163475
388,Mogadishu,2.0371,45.3438,74.05,74,0,19.55,SO,1610163479
389,São Sebastião,-23.76,-45.4097,76.12,85,100,1.86,BR,1610163484
390,Ponta Delgada,37.7333,-25.6667,51.8,71,40,5.75,PT,1610163488
391,Ambilobe,-13.2,49.05,76.71,85,0,2.13,MG,1610163492
392,Kadyy,57.787,43.1903,15.24,97,94,4.94,RU,1610163496
393,Bilibino,68.0546,166.4372,-22.61,84,24,1.77,RU,1610163213
394,Divinópolis,-20.1389,-44.8839,69.49,89,100,1.52,BR,1610163505
395,Chokurdakh,70.6333,147.9167,-21.48,88,92,3.49,RU,1610163388
396,Oytal,42.9057,73.2697,15.66,75,0,5.61,KZ,1610163513
397,Narsaq,60.9167,-46.05,42.8,39,90,21.85,GL,1610163385
398,Clarence Town,-32.5833,151.7833,75.99,64,75,16.11,AU,1610163521
399,Oranjestad,12.524,-70.027,78.8,89,20,11.5,AW,1610163371
400,Waddān,29.1614,16.139,63.99,29,91,4.63,LY,1610163340
401,Koumac,-20.5667,164.2833,86.18,68,98,0.63,NC,1610163534
402,Marihatag,8.7936,126.2969,83.61,71,100,5.23,PH,1610163538
403,Plettenberg Bay,-34.0527,23.3716,67.73,86,19,3.31,ZA,1610163413
404,Avera,33.194,-82.5271,41.0,86,90,4.61,US,1610163547
405,Kavieng,-2.5744,150.7967,84.7,71,93,11.05,PG,1610163376
406,Rørvik,64.8621,11.2373,30.76,96,75,19.44,NO,1610163555
407,Saint-Pierre,-21.3393,55.4781,78.8,57,0,3.44,RE,1610163331
408,Mehamn,71.0357,27.8492,17.73,91,12,9.91,NO,1610163439
409,Philadelphia,39.9523,-75.1638,35.01,60,90,10.36,US,1610163286
410,Potoru,7.5072,-11.4786,73.63,98,13,0.58,SL,1610163572
411,Teahupoo,-17.8333,-149.2667,84.2,70,20,9.22,PF,1610163576
412,Örnsköldsvik,63.2909,18.7153,21.2,100,75,1.92,SE,1610163580
413,Yerofey Pavlovich,53.9667,121.9667,-2.99,83,100,3.44,RU,1610163588
414,Dandong,40.1292,124.3947,9.95,67,0,8.1,CN,1610163364
415,Vila Velha,-20.3297,-40.2925,79.0,83,75,8.05,BR,1610163597
416,Ugoofaaru,5.6667,73.0,81.95,76,100,4.79,MV,1610163601
417,Batagay-Alyta,67.8006,130.4114,-18.22,85,100,4.18,RU,1610163606
418,Tsagan Aman,47.5639,46.7218,32.0,99,100,10.71,RU,1610163610
419,Miraflores,19.2167,-98.8083,57.99,58,90,6.91,MX,1610163614
420,Abhā,18.2164,42.5053,48.2,66,0,2.42,SA,1610163437
421,Lékoni,-1.5843,14.2591,70.3,83,53,4.16,GA,1610163622
422,Itaberaba,-12.5275,-40.3069,70.7,95,19,3.53,BR,1610163627
423,Los Algarrobos,8.5,-82.4333,70.72,83,99,3.8,PA,1610163631
424,‘Āhuimanu,21.4447,-157.8378,78.8,69,40,9.22,US,1610163635
425,Ha Giang,22.8333,104.9833,56.86,40,91,2.15,VN,1610163623
426,Itanagar,27.1,93.6167,60.8,94,20,2.3,IN,1610163643
427,Clocolan,-28.9137,27.5656,64.49,70,24,7.02,ZA,1610163648
428,Sayyan,15.1718,44.3244,37.26,77,5,4.14,YE,1610163652
429,Suez,29.9737,32.5263,60.01,47,0,9.31,EG,1610163433
430,Phan Thiet,10.9333,108.1,80.53,58,90,11.61,VN,1610163660
431,Río Gallegos,-51.6226,-69.2181,55.4,54,0,6.91,AR,1610163664
432,Lázaro Cárdenas,17.9583,-102.2,73.92,84,100,2.1,MX,1610163669
433,Clovis,36.8252,-119.7029,48.0,87,90,4.61,US,1610163673
434,Broome,42.2506,-75.833,19.0,79,40,12.66,US,1610163677
435,Assiut,27.181,31.1837,50.0,87,0,4.61,EG,1610163681
436,Codrington,-38.2667,141.9667,72.23,61,8,11.48,AU,1610163694
437,Iqaluit,63.7506,-68.5145,3.2,66,75,8.05,CA,1610163698
438,Lagos de Moreno,21.35,-101.9167,59.0,29,1,4.61,MX,1610163702
439,Tel Aviv-Yafo,32.0805,34.7805,60.01,47,0,2.3,IL,1610163707
440,Kaeo,-35.1,173.7833,74.48,65,36,8.16,NZ,1610163442
441,Itarema,-2.9248,-39.9167,79.48,79,85,15.73,BR,1610163598
442,Shelburne,44.0787,-80.2041,21.0,82,100,7.92,CA,1610163723
443,Ginda,30.6945,78.4932,55.98,32,0,1.12,IN,1610163728
444,Gizo Government Station,-8.103,156.8419,85.46,68,67,6.49,SB,1610163732
445,Mount Isa,-20.7333,139.5,95.0,26,0,6.91,AU,1610163736
446,Kudahuvadhoo,2.6708,72.8944,82.0,79,19,8.95,MV,1610163740
447,Diego de Almagro,-26.3667,-70.05,57.69,54,0,1.28,CL,1610163688
448,Aklavik,68.2191,-135.0107,10.4,85,99,4.61,CA,1610163748
449,Ancud,-41.8697,-73.8203,53.6,71,90,6.91,CL,1610163753
450,Cap Malheureux,-19.9842,57.6142,79.0,83,13,7.0,MU,1610163761
451,Poli,-3.3333,36.8,69.8,94,75,2.15,TZ,1610163765
452,Changli,39.7042,119.1506,20.7,66,0,14.03,CN,1610163769
453,Hof,50.3167,11.9167,28.0,96,99,5.99,DE,1610163774
454,Clyde River,70.4692,-68.5914,-4.0,77,90,4.61,CA,1610163558
455,Yining,29.0361,114.5636,42.85,45,0,2.73,CN,1610163782
456,Usta Muhammad,28.1794,68.0445,58.78,31,0,6.6,PK,1610163786
457,Ajdabiya,30.7554,20.2263,62.74,43,0,8.95,LY,1610163790
458,Lipari,38.4674,14.954,57.0,90,9,4.0,IT,1610163795
459,Maţāy,28.419,30.7792,54.54,62,0,8.1,EG,1610163799
460,Effingham County,32.3669,-81.3332,44.6,76,90,14.97,US,1610163803
461,Kutum,14.2,24.6667,55.6,38,4,9.57,SD,1610163807
462,San Vicente,-26.6167,-54.1333,67.62,71,61,2.68,AR,1610163811
463,Pangnirtung,66.1451,-65.7125,5.63,76,100,0.29,CA,1610163815
464,Gillette,44.2911,-105.5022,30.2,93,90,3.44,US,1610163806
465,Novy Urengoy,66.0833,76.6333,-12.03,90,90,4.09,RU,1610163824
466,Chabahar,25.2919,60.643,59.56,32,0,6.6,IR,1610163828
467,Tosya,41.0155,34.0401,43.09,72,100,4.7,TR,1610163832
468,Zaraza,9.3503,-65.3245,71.85,96,25,2.59,VE,1610163836
469,Hong Kong,22.2855,114.1577,54.0,28,13,1.01,HK,1610163689
470,Brae,60.3964,-1.353,41.0,70,90,25.32,GB,1610163845
471,Karczew,52.0766,21.2496,32.0,100,75,4.61,PL,1610163849
472,Kodinsk,58.6881,99.1844,-6.38,88,100,2.84,RU,1610163857
473,Mawlaik,23.6333,94.4167,79.12,35,1,1.7,MM,1610163862
474,Oktyabr'skiy,54.4815,53.471,19.85,97,98,7.52,RU,1610163866
475,Medicine Hat,50.0501,-110.6683,33.01,80,1,4.61,CA,1610163870
476,Santa Rosa,14.3122,121.1114,84.0,61,75,2.3,PH,1610163874
477,Ørje,59.4802,11.6602,24.8,74,90,4.61,NO,1610163878
478,Sydney,-33.8679,151.2073,77.0,50,0,12.66,AU,1610163848
479,Vestmannaeyjar,63.4427,-20.2734,21.15,89,3,28.27,IS,1610163887
480,Adré,13.4667,22.2,59.81,33,68,11.97,TD,1610163891
481,Aswān,24.0934,32.907,58.44,36,0,6.89,EG,1610163895
482,Kangaatsiaq,68.3065,-53.4641,4.62,81,100,21.77,GL,1610163899
483,Acaraú,-2.8856,-40.12,79.45,80,93,15.97,BR,1610163904
484,Upata,8.0086,-62.3989,73.99,95,97,1.99,VE,1610163908
485,Arrondissement de Saint-Denis,48.9167,2.3333,30.2,93,0,1.14,FR,1610163916
486,Killarney,52.05,-9.5167,29.77,96,1,2.24,IE,1610163925
487,Oranjemund,-28.55,16.4333,61.11,93,20,10.42,NA,1610163929
488,Inuvik,68.3499,-133.7218,10.4,85,94,4.61,CA,1610163739
489,Kolosovka,56.4678,73.611,0.18,89,100,11.77,RU,1610163937
490,Ørnes,66.8689,13.7078,23.0,54,0,21.85,NO,1610163941
491,Torit,4.4133,32.5678,76.68,35,0,3.96,SS,1610163945
492,Araouane,18.9048,-3.5265,72.46,19,0,5.59,ML,1610163950
493,Filingué,14.3521,3.3168,74.84,19,0,10.85,NE,1610163954
494,Port Blair,11.6667,92.75,84.2,74,20,8.05,IN,1610163962
495,Freeport,40.6576,-73.5832,33.01,55,75,14.97,US,1610163900
496,Mariehamn,60.0973,19.9348,28.4,86,75,5.75,AX,1610163971
497,Vostok,46.4856,135.8833,-12.01,78,77,3.96,RU,1610163975
498,Yar-Sale,66.8333,70.8333,0.01,93,92,5.41,RU,1610163979
499,Casper,42.8666,-106.3131,21.0,79,1,11.5,US,1610163983
500,Manturovo,58.3353,44.7619,12.85,97,89,4.18,RU,1610163987
501,Tavricheskoye,54.5851,73.6395,-2.2,71,40,6.71,RU,1610163991
502,Altay,47.8667,88.1167,2.64,88,100,1.79,CN,1610163824
503,Puerto Colombia,10.9878,-74.9547,78.8,89,40,8.05,CO,1610164000
504,Suntar,62.1444,117.6319,-1.23,91,100,7.0,RU,1610164004
505,Yenagoa,4.9247,6.2642,75.65,94,94,2.01,NG,1610164008
506,Lata,40.1629,-8.3327,39.0,63,0,10.0,PT,1610164012
507,Ilesha,7.1371,5.2583,76.26,85,96,4.34,NG,1610164017
508,Kharan,28.5833,65.4167,38.07,61,0,5.3,PK,1610164021
509,Honningsvåg,70.9821,25.9704,24.31,94,8,23.13,NO,1610164025
510,Wanaka,-44.7,169.15,72.55,39,23,4.16,NZ,1610163997
511,Mangalia,43.8,28.5833,34.0,100,90,17.27,RO,1610164033
512,Namatanai,-3.6667,152.4333,84.96,65,100,8.48,PG,1610164037
513,Destin,30.3935,-86.4958,44.6,65,90,9.22,US,1610164042
514,Shingū,33.7333,135.9833,35.6,44,40,19.57,JP,1610164046
515,Paamiut,61.994,-49.6678,29.1,80,93,4.65,GL,1610164038
516,Otavi,-19.65,17.3333,66.31,87,93,7.05,NA,1610164054
517,Oktyabr'skoye,43.0645,44.7417,24.8,86,9,4.47,RU,1610164063
518,Beloha,-25.1667,45.05,77.79,82,11,6.91,MG,1610164067
519,Anadyr,64.75,177.4833,-29.0,75,40,15.66,RU,1610163814
520,Kédougou,12.5579,-12.1743,77.0,44,0,4.61,SN,1610164076
521,Cobija,-11.0267,-68.7692,72.01,82,30,2.53,BO,1610164080
522,Ballina,-28.8667,153.5667,73.4,94,75,2.3,AU,1610163830
523,Tahara,34.6667,137.2667,41.0,32,0,8.01,JP,1610164088
524,Gimli,50.6336,-96.9907,21.2,93,67,5.75,CA,1610164093
525,Ruston,32.5232,-92.6379,39.2,75,90,3.69,US,1610164097
526,Druskininkai,54.0167,23.9667,30.2,93,90,6.71,LT,1610164101
527,Kachug,53.9606,105.8817,-5.24,84,0,0.67,RU,1610164105
528,Buta,2.7858,24.73,68.22,98,59,1.68,CD,1610163986
529,Tuyen Quang,21.8233,105.2181,56.66,35,91,2.75,VN,1610164114
530,Funadhoo,6.15,73.2667,82.02,75,100,5.64,MV,1610164122
531,Bongued,7.1167,124.4,89.08,62,64,1.9,PH,1610164126
532,Kalmunai,7.4167,81.8167,79.86,83,100,7.96,LK,1610164130
533,Tagbacan,11.1534,125.5767,82.67,79,31,3.85,PH,1610164134
534,Jumla,29.2747,82.1838,54.45,29,31,1.48,NP,1610164139
535,Shevchenkove,49.6959,37.1735,32.0,93,90,1.23,UA,1610164143
536,Monticello,45.3055,-93.7941,15.8,92,90,4.79,US,1610164147
537,Lavrentiya,65.5833,-171.0,-12.69,83,2,3.91,RU,1610164151
538,Korla,41.7597,86.1469,18.05,88,69,4.38,CN,1610164155
539,Dali,25.7,100.1833,57.52,37,90,4.43,CN,1610164168
540,Sukhumi,43.0033,41.0153,54.84,48,98,4.47,GE,1610164172
541,Olavarría,-36.8927,-60.3225,63.0,70,100,4.0,AR,1610164181
542,Alekseyevka,50.6309,38.6903,30.92,97,100,4.38,RU,1610164185
543,Vardø,70.3705,31.1107,22.19,95,76,17.9,NO,1610164189
544,Ola,59.5833,151.2833,0.32,82,98,5.03,RU,1610164193
545,Ishigaki,24.3448,124.1572,51.8,66,75,11.5,JP,1610164197
546,Mana,5.6592,-53.7767,77.02,86,90,9.64,GF,1610164201
547,Forsytheganj,52.6333,29.7333,27.57,98,86,8.75,BY,1610164206
548,Oksovskiy,62.6062,39.8984,-13.49,89,59,2.68,RU,1610164210
549,Caaguazú,-25.45,-56.0167,70.21,92,90,2.01,PY,1610164214
550,Neiafu,-18.65,-173.9833,84.2,74,75,10.36,TO,1610164218
551,Seydi,39.4816,62.9137,28.18,84,0,10.07,TM,1610164222
552,Alice Springs,-23.7,133.8833,91.4,21,40,14.97,AU,1610164227
553,Iberia,29.9502,-91.7507,44.6,65,90,9.22,US,1610164231
554,Yangi Marg`ilon,40.4272,71.7189,21.2,73,75,6.91,UZ,1610164235
555,Fayaoué,-20.65,166.5333,84.11,73,41,6.69,NC,1610164239
556,Navalcarnero,40.2891,-4.012,33.01,100,90,10.36,ES,1610164243
557,Solana Beach,32.9912,-117.2711,53.01,87,90,5.75,US,1610164080
558,Pacific Grove,36.6177,-121.9166,54.0,87,90,5.59,US,1610164111
559,Luanda,-8.8368,13.2343,77.0,78,20,4.61,AO,1610164256
560,Gao,16.6362,1.637,72.55,19,1,11.61,ML,1610164260
561,Balkhash,46.844,74.9804,-16.6,76,40,8.95,KZ,1610164264
562,High Level,58.5169,-117.136,6.8,92,1,5.46,CA,1610164268
563,Mabaruma,8.2,-59.7833,72.7,98,93,2.59,GY,1610164273
564,Tocopilla,-22.092,-70.1979,68.22,67,2,3.02,CL,1610164277
565,Damietta,31.4165,31.8133,62.6,88,0,3.44,EG,1610164281
566,Kimbe,-5.5502,150.1429,87.49,67,58,6.89,PG,1610164285
567,Nizhnevartovsk,60.9344,76.5531,-4.0,84,90,2.24,RU,1610164289
568,Dolores,-36.3132,-57.6792,53.56,84,39,6.55,AR,1610164294
569,Terrace Bay,48.7834,-87.1,26.6,86,85,5.75,CA,1610164298
570,Mashpee,41.6484,-70.4811,33.01,59,20,4.61,US,1610164302
